City_ID,City,Cloudiness,Country,Date,Humidity,Lat,Lng,Max Temp,Wind Speed
0,hermanus,17,ZA,1595126828,90,-34.42,19.23,53.01,1.99
1,yar-sale,100,RU,1595126588,91,66.83,70.83,49.01,12.64
2,evansville,1,US,1595126613,70,37.97,-87.56,84.2,6.93
3,fort saint james,74,CA,1595127017,81,54.43,-124.25,60.55,4.72
4,ushuaia,75,AR,1595126619,94,-54.8,-68.3,32.0,9.17
5,ust-kan,6,RU,1595127017,68,50.93,84.76,71.69,2.42
6,port alfred,0,ZA,1595126888,79,-33.59,26.89,58.48,9.42
7,auki,56,SB,1595127017,61,-8.77,160.7,86.09,3.44
8,mataura,0,NZ,1595126922,52,-46.19,168.86,48.96,0.69
9,hilo,90,US,1595126578,74,19.73,-155.09,80.6,9.17
10,georgetown,20,MY,1595126663,88,5.41,100.34,86.0,4.7
11,rikitea,98,PF,1595126834,82,-23.12,-134.97,70.23,14.56
12,zhangjiakou,0,CN,1595127018,29,40.81,114.88,76.71,8.55
13,kapaa,90,US,1595126841,94,22.08,-159.32,82.0,9.17
14,bumba,97,CD,1595127018,93,2.18,22.47,69.8,1.92
15,bluff,1,NZ,1595126970,62,-46.6,168.33,46.98,4.43
16,arraial do cabo,0,BR,1595126875,77,-22.97,-42.03,69.58,16.06
17,west wendover,1,US,1595127018,12,40.74,-114.07,95.0,9.17
18,port-gentil,100,GA,1595126585,84,-0.72,8.78,73.96,10.65
19,tuktoyaktuk,90,CA,1595126911,87,69.45,-133.04,44.6,12.75
20,saint-philippe,90,RE,1595127006,68,-21.36,55.77,66.2,13.87
21,new norfolk,18,AU,1595127018,71,-42.78,147.06,57.99,1.99
22,kodiak,90,US,1595127018,68,57.79,-152.41,64.4,8.05
23,saskylakh,44,RU,1595127018,58,71.92,114.08,53.01,10.31
24,luganville,75,VU,1595127018,78,-15.53,167.17,78.8,6.93
25,karratha,0,AU,1595126148,52,-20.74,116.85,72.3,5.68
26,cape town,0,ZA,1595126833,100,-33.93,18.42,57.0,9.17
27,abilene,1,US,1595126828,38,32.45,-99.73,89.6,10.29
28,bo rai,20,TH,1595127019,66,12.57,102.54,86.0,4.7
29,mogadishu,93,SO,1595126929,79,2.04,45.34,76.84,20.78
30,east london,0,ZA,1595127010,66,-33.02,27.91,60.64,8.46
31,atuona,39,PF,1595126904,81,-9.8,-139.03,78.82,16.69
32,kautokeino,88,NO,1595127019,88,69.01,23.04,52.56,3.29
33,ribeira grande,12,PT,1595126666,77,38.52,-28.7,68.81,8.57
34,vilyuysk,98,RU,1595127019,49,63.76,121.62,71.2,5.08
35,raudeberg,80,NO,1595127019,76,61.99,5.14,55.4,17.22
36,albany,69,US,1595126728,66,42.6,-73.97,78.01,3.29
37,puerto ayora,82,EC,1595126854,92,-0.74,-90.35,70.0,4.0
38,benjamin aceval,0,PY,1595127019,47,-24.97,-57.57,77.0,8.05
39,norman wells,75,CA,1595127019,93,65.28,-126.83,62.6,5.7
40,punta arenas,99,CL,1595126940,74,-53.15,-70.92,35.6,17.22
41,sal rei,75,CV,1595127019,78,16.18,-22.92,77.0,6.93
42,namwala,0,ZM,1595127019,89,-15.75,26.44,42.78,2.84
43,oranjestad,20,AW,1595127019,78,12.52,-70.03,82.4,21.92
44,bredasdorp,60,ZA,1595127002,93,-34.53,20.04,50.0,2.19
45,busselton,100,AU,1595126639,87,-33.65,115.33,55.99,2.35
46,avarua,79,CK,1595126648,78,-21.21,-159.78,73.4,14.99
47,hami,99,CN,1595127020,10,42.8,93.45,93.74,5.28
48,olinda,40,BR,1595126737,78,-8.01,-34.86,77.0,11.41
49,pochutla,39,MX,1595127020,75,15.74,-96.47,82.0,2.57
50,kattivakkam,90,IN,1595127020,94,13.22,80.32,82.4,3.36
51,methoni,0,GR,1595127020,68,36.82,21.7,75.99,8.05
52,hof,9,DE,1595127020,82,50.32,11.92,55.0,1.01
53,port elizabeth,0,ZA,1595127020,87,-33.92,25.57,55.4,5.82
54,chumikan,100,RU,1595126948,90,54.72,135.31,55.89,9.1
55,panguna,49,PG,1595127020,77,-6.32,155.48,78.4,1.66
56,thompson,40,CA,1595127020,49,55.74,-97.86,69.8,4.7
57,yakeshi,99,CN,1595127020,79,49.28,120.73,62.19,6.98
58,lebanon,75,US,1595126968,78,36.21,-86.29,82.0,5.82
59,xichang,99,CN,1595126523,74,27.9,102.26,72.18,1.63
60,vaini,75,TO,1595126882,78,-21.2,-175.2,80.6,14.99
61,faanui,66,PF,1595126905,84,-16.48,-151.75,75.07,23.24
62,durango,80,MX,1595126790,50,24.83,-104.83,70.65,6.31
63,matara,95,LK,1595127021,75,5.95,80.54,83.34,11.43
64,carnarvon,0,AU,1595127021,55,-24.87,113.63,60.8,17.22
65,ancud,75,CL,1595127021,100,-41.87,-73.82,51.01,9.17
66,augustow,12,PL,1595127021,89,53.84,22.98,57.96,2.68
67,tornio,90,FI,1595127021,88,65.85,24.15,62.6,10.29
68,mujiayingzi,11,CN,1595127021,31,42.12,118.78,76.64,10.6
69,tiksi,100,RU,1595126586,96,71.69,128.87,52.41,7.74
70,mar del plata,90,AR,1595126892,100,-38.0,-57.56,51.01,1.9
71,bonthe,99,SL,1595127021,85,7.53,-12.51,75.88,5.14
72,jamestown,1,US,1595126594,83,42.1,-79.24,72.0,4.7
73,warwick,20,US,1595127017,83,41.7,-71.42,78.01,6.93
74,barrow,75,US,1595127021,74,71.29,-156.79,37.4,14.99
75,maniitsoq,74,GL,1595127021,75,65.42,-52.9,50.07,10.31
76,ukiah,1,US,1595127021,26,39.15,-123.21,93.2,5.82
77,luderitz,0,NA,1595126825,29,-26.65,15.16,62.6,1.12
78,boyolangu,33,ID,1595127021,70,-8.12,111.89,81.54,6.55
79,vardo,95,NO,1595126572,87,70.37,31.11,50.95,5.3
80,ergani,0,TR,1595127022,42,38.27,39.76,68.0,5.82
81,vestmannaeyjar,46,IS,1595126593,74,63.44,-20.27,48.81,23.17
82,vila velha,75,BR,1595127022,93,-20.33,-40.29,66.99,2.24
83,manbij,0,SY,1595127022,72,36.53,37.95,66.2,8.52
84,nemuro,75,JP,1595127022,77,43.32,145.57,68.0,8.05
85,port augusta,75,AU,1595126784,67,-32.5,137.77,62.6,18.34
86,chokurdakh,0,RU,1595127022,33,70.63,147.92,66.16,14.05
87,vaitape,67,PF,1595127022,82,-16.52,-151.75,75.83,23.2
88,leningradskiy,13,RU,1595126430,73,69.38,178.42,41.81,10.65
89,kaitangata,0,NZ,1595126850,61,-46.28,169.85,48.99,5.01
90,guerrero negro,0,MX,1595126766,80,27.98,-114.06,69.1,15.7
91,cidreira,23,BR,1595127022,86,-30.18,-50.21,64.76,7.0
92,hirara,75,JP,1595126793,83,24.8,125.28,84.2,9.17
93,ojinaga,1,MX,1595127022,30,29.57,-104.42,93.2,9.17
94,nikolskoye,100,RU,1595126932,77,59.7,30.79,63.0,4.47
95,tautira,40,PF,1595127022,69,-17.73,-149.15,80.6,9.17
96,vodnyy,0,RU,1595127022,75,63.5,53.41,62.53,4.5
97,huarmey,22,PE,1595127022,84,-10.07,-78.15,59.94,7.09
98,ankazoabo,0,MG,1595127022,82,-22.28,44.52,52.56,4.88
99,lebu,99,CL,1595126853,86,-37.62,-73.65,53.38,16.93
100,ibra,2,OM,1595127023,60,22.69,58.53,85.95,7.87
101,yellowknife,40,CA,1595126588,43,62.46,-114.35,73.99,10.29
102,bengkulu,93,ID,1595126946,64,-3.8,102.27,84.54,0.16
103,mvuma,0,ZW,1595127023,92,-19.28,30.53,41.81,6.04
104,verkhnyaya inta,100,RU,1595127023,85,65.98,60.31,53.73,12.06
105,batagay-alyta,100,RU,1595127023,68,67.8,130.41,66.67,3.76
106,vallenar,99,CL,1595127023,64,-28.57,-70.76,56.71,1.36
107,bethel,1,US,1595126943,83,41.37,-73.41,73.99,3.29
108,cherskiy,0,RU,1595127023,48,68.75,161.3,71.22,8.16
109,booue,80,GA,1595127023,95,-0.09,11.94,70.45,3.13
110,novobeysugskaya,48,RU,1595127024,76,45.47,39.89,68.5,9.17
111,upernavik,0,GL,1595127024,57,72.79,-56.15,47.03,4.83
112,bilibino,47,RU,1595127024,40,68.05,166.44,71.89,11.41
113,hofn,32,IS,1595127024,64,64.25,-15.21,51.4,9.15
114,inhambane,14,MZ,1595126567,76,-23.86,35.38,63.03,3.4
115,jaque,100,PA,1595127024,82,7.52,-78.17,80.08,3.6
116,plettenberg bay,4,ZA,1595127024,71,-34.05,23.37,55.35,2.04
117,lugovoy,51,KZ,1595127024,19,42.95,72.76,90.25,2.98
118,canoa,75,DO,1595127024,75,18.36,-71.16,78.53,2.77
119,camana,64,PE,1595127024,77,-16.62,-72.71,59.23,7.74
120,sinnamary,100,GF,1595127024,84,5.38,-52.95,78.01,8.08
121,odienne,78,CI,1595127024,94,9.51,-7.57,66.0,2.46
122,moindou,40,NC,1595127024,60,-21.69,165.68,73.4,9.17
123,victoria,40,HK,1595126876,59,22.29,114.16,91.4,17.22
124,kurumkan,77,RU,1595127025,53,54.3,110.3,63.01,4.74
125,hasaki,75,JP,1595127025,83,35.73,140.83,81.0,5.82
126,leopold,75,AU,1595127025,58,-38.18,144.47,59.0,19.46
127,bubaque,100,GW,1595127025,94,11.28,-15.83,76.24,14.18
128,geraldton,90,AU,1595127025,82,-28.77,114.6,60.8,6.93
129,camacha,40,PT,1595127025,83,33.08,-16.33,69.8,10.29
130,itaueira,28,BR,1595127025,55,-7.6,-43.03,75.06,10.33
131,codrington,66,AU,1595126254,73,-38.27,141.97,54.52,21.94
132,sitka,90,US,1595126931,93,57.05,-135.33,57.2,10.29
133,korla,100,CN,1595127025,84,41.76,86.15,81.0,14.18
134,carlsbad,1,US,1595127025,83,33.16,-117.35,72.0,8.05
135,guiratinga,0,BR,1595127025,47,-16.35,-53.76,67.89,3.51
136,grande prairie,75,CA,1595126834,59,55.17,-118.8,64.4,20.8
137,fortuna,1,US,1595126691,82,40.6,-124.16,62.01,6.93
138,lagoa,1,PT,1595127026,79,39.05,-27.98,68.25,11.63
139,mahebourg,40,MU,1595126977,72,-20.41,57.7,68.0,13.87
140,senneterre,90,CA,1595127026,93,48.38,-77.23,66.2,9.17
141,butaritari,31,KI,1595126897,76,3.07,172.79,83.01,14.7
142,ahuimanu,40,US,1595127026,66,21.44,-157.84,87.8,13.87
143,praia da vitoria,75,PT,1595127026,77,38.73,-27.07,69.8,9.13
144,lompoc,0,US,1595126852,72,34.64,-120.46,64.99,13.87
145,severo-kurilsk,66,RU,1595127026,82,50.68,156.12,53.33,14.07
146,los llanos de aridane,52,ES,1595127026,57,28.66,-17.92,75.2,5.82
147,teya,2,RU,1595127026,45,60.38,92.63,64.4,5.75
148,ust-maya,100,RU,1595127026,86,60.42,134.53,72.95,1.95
149,majene,67,ID,1595127026,68,-3.54,118.97,84.07,7.29
150,san cristobal,84,VE,1595126558,91,7.77,-72.22,65.55,3.15
151,atar,0,MR,1595127027,28,20.52,-13.05,90.46,5.61
152,bantou,62,CN,1595127027,50,26.22,117.49,92.68,7.76
153,pechenga,75,RU,1595127027,93,69.53,31.17,51.8,11.41
154,hobart,40,AU,1595126981,44,-42.88,147.33,59.0,6.93
155,bogatyye saby,100,RU,1595127027,90,56.01,50.45,63.05,7.54
156,colac,66,AU,1595127027,79,-38.33,143.58,52.0,5.01
157,san quintin,0,MX,1595127027,78,30.48,-115.95,68.85,15.17
158,sur,77,OM,1595127027,80,22.57,59.53,85.39,12.15
159,cabo san lucas,5,MX,1595127027,39,22.89,-109.91,84.2,10.29
160,dikson,100,RU,1595126993,94,73.51,80.55,39.76,7.05
161,nyurba,64,RU,1595127027,49,63.28,118.33,68.77,6.55
162,gua musang,8,MY,1595127028,59,4.88,101.96,88.5,0.81
163,hamilton,1,US,1595126926,78,39.18,-84.53,84.0,4.7
164,qaanaaq,98,GL,1595126883,75,77.48,-69.36,46.42,0.38
165,khatanga,100,RU,1595126590,72,71.97,102.5,49.86,5.08
166,clyde river,90,CA,1595127028,87,70.47,-68.59,42.8,11.41
167,bodden town,84,KY,1595127028,78,19.28,-81.25,84.0,5.99
168,oregon,0,US,1595127028,21,44.0,-120.5,82.0,11.01
169,esperance,40,AU,1595127028,100,-33.87,121.9,51.8,6.93
170,matagami,90,CA,1595127028,68,49.75,-77.63,71.6,4.7
171,pangnirtung,24,CA,1595127028,69,66.15,-65.71,53.11,0.56
172,mao,0,ES,1595127029,94,39.89,4.27,68.0,4.7
173,tasiilaq,75,GL,1595126893,81,65.61,-37.64,44.6,6.93
174,vila do maio,40,CV,1595127029,78,15.13,-23.22,75.2,4.7
175,lokomotivnyy,87,RU,1595127029,79,53.01,60.57,73.42,8.1
176,castro,0,BR,1595126814,92,-24.79,-50.01,56.75,3.44
177,souillac,40,MU,1595127029,72,-20.52,57.52,68.0,13.87
178,college,75,US,1595126540,68,64.86,-147.8,68.0,8.05
179,nouadhibou,90,MR,1595127029,88,20.93,-17.03,71.6,16.11
180,kedrovoye,47,RU,1595127029,78,57.16,60.57,71.6,2.24
181,ust-ishim,16,RU,1595127029,65,57.69,71.17,80.28,4.05
182,iralaya,0,HN,1595127029,84,15.0,-83.23,80.56,9.37
183,yumen,97,CN,1595127029,14,40.28,97.2,84.04,8.72
184,rancho mirage,1,US,1595127029,16,33.74,-116.41,107.6,12.75
185,port moresby,40,PG,1595127030,74,-9.44,147.18,82.4,11.41
186,lasa,5,IT,1595127030,81,46.62,10.7,51.8,4.7
187,xuddur,90,SO,1595127030,74,4.12,43.89,70.66,22.44
188,shaunavon,21,CA,1595127030,62,49.65,-108.42,61.23,9.01
189,tombouctou,84,ML,1595127030,52,20.0,-3.0,85.71,21.72
190,dukat,82,RU,1595127030,60,62.55,155.55,57.83,15.55
191,lavrentiya,91,RU,1595127030,69,65.58,-171.0,50.02,5.97
192,ilebo,48,CD,1595127030,56,-4.32,20.58,66.07,1.59
193,urucui,19,BR,1595127030,47,-7.23,-44.56,78.3,7.94
194,wanaka,0,NZ,1595126433,81,-44.7,169.15,39.99,1.9
195,port hardy,90,CA,1595126811,93,50.7,-127.42,59.0,4.7
196,naryan-mar,1,RU,1595127030,75,67.67,53.09,54.14,7.7
197,erzurum,0,TR,1595127030,76,40.0,41.5,51.8,1.12
198,union,75,US,1595127031,65,40.63,-74.27,82.99,8.05
199,mabaruma,70,GY,1595127031,95,8.2,-59.78,75.02,2.71
200,torrington,62,US,1595127031,79,41.8,-73.12,73.0,2.86
201,coruripe,13,BR,1595127031,85,-10.13,-36.18,73.69,11.81
202,pacific grove,1,US,1595126820,68,36.62,-121.92,68.0,10.29
203,djenne,86,ML,1595127031,68,13.91,-4.55,82.49,5.17
204,pevek,1,RU,1595127019,62,69.7,170.31,47.44,5.08
205,half moon bay,90,US,1595127031,82,37.46,-122.43,73.4,4.85
206,bolshoye selo,3,RU,1595127031,91,57.72,38.93,56.14,3.98
207,natal,20,BR,1595126481,88,-5.79,-35.21,71.6,20.8
208,kavieng,90,PG,1595127031,76,-2.57,150.8,82.65,7.56
209,iqaluit,75,CA,1595126234,93,63.75,-68.51,46.4,3.36
210,lae,65,PG,1595127031,70,-6.72,146.98,83.35,1.03
211,vadso,75,NO,1595127031,93,70.07,29.75,51.8,11.41
212,kalmunai,89,LK,1595127031,63,7.42,81.82,85.73,5.28
213,klyuchi,100,RU,1595127032,61,52.27,79.17,68.59,13.2
214,ranau,20,MY,1595127032,79,5.95,116.66,87.8,5.82
215,ponta delgada,40,PT,1595126743,68,37.73,-25.67,68.0,5.82
216,bathsheba,75,BB,1595127032,78,13.22,-59.52,82.4,13.87
217,talnakh,69,RU,1595127032,76,69.49,88.4,55.4,6.71
218,mangai,88,CD,1595127032,57,-4.05,19.53,66.79,1.59
219,portland,0,US,1595126908,46,45.52,-122.68,81.0,3.0
220,gravdal,73,NO,1595127032,86,68.12,13.5,55.58,20.94
221,lagunas,5,PE,1595127032,82,-5.23,-75.68,73.78,2.26
222,gamba,2,GA,1595127032,93,-2.65,10.0,69.21,1.41
223,saldanha,0,ZA,1595126994,81,-33.01,17.94,48.2,2.24
224,ilulissat,100,GL,1595127032,61,69.22,-51.1,46.4,4.7
225,carutapera,19,BR,1595127032,92,-1.2,-46.02,73.11,4.29
226,hendaye,0,FR,1595127032,88,43.37,-1.77,64.4,4.7
227,mehamn,47,NO,1595127033,71,71.04,27.85,53.6,2.24
228,talaya,16,RU,1595127033,44,61.38,152.75,64.87,14.58
229,usakos,0,NA,1595127033,44,-22.0,15.6,50.54,13.24
230,kardla,51,EE,1595127033,73,59.0,22.75,59.47,5.21
231,santiago,75,CL,1595126837,93,-33.46,-70.65,51.8,3.36
232,opuwo,0,NA,1595127033,46,-18.06,13.84,49.77,12.1
233,winton,1,US,1595127033,30,37.39,-120.61,95.0,10.29
234,hithadhoo,100,MV,1595126670,80,-0.6,73.08,82.29,13.2
235,aqtobe,0,KZ,1595126943,30,50.28,57.21,82.4,4.47
236,provideniya,4,RU,1595126870,63,64.38,-173.3,49.93,5.32
237,harnai,0,PK,1595127033,46,30.1,67.94,88.92,4.56
238,gizo,100,SB,1595127033,75,-8.1,156.84,82.51,8.25
239,bambous virieux,40,MU,1595127034,72,-20.34,57.76,68.0,13.87
240,qurayyat,0,SA,1595127034,56,31.33,37.34,73.4,20.8
241,haines junction,15,CA,1595127034,48,60.75,-137.51,65.1,7.74
242,itumba,24,TZ,1595127034,91,-9.4,33.18,49.66,5.64
243,naze,75,JP,1595126762,89,28.37,129.48,86.0,18.34
244,tay ninh,40,VN,1595127034,67,11.3,106.1,86.49,4.45
245,padang,20,ID,1595127034,74,-0.95,100.35,84.2,3.36
246,catalina foothills,90,US,1595127034,17,32.3,-110.92,99.0,5.82
247,tabuk,66,PH,1595127034,60,17.42,121.44,87.33,5.46
248,iquitos,29,PE,1595127034,96,-3.75,-73.25,72.05,1.68
249,nanortalik,48,GL,1595127034,79,60.14,-45.24,46.63,3.74
250,harper,4,LR,1595127034,89,4.38,-7.72,74.88,6.31
251,el fuerte,85,MX,1595127034,56,26.42,-108.62,88.95,4.32
252,kongwa,32,TZ,1595127035,74,-6.2,36.42,57.16,5.12
253,alice springs,90,AU,1595126643,18,-23.7,133.88,68.0,8.05
254,palmares do sul,32,BR,1595127035,89,-30.26,-50.51,64.6,3.22
255,ati,98,TD,1595127035,57,13.22,18.34,82.4,9.4
256,lichinga,0,MZ,1595127035,94,-13.31,35.24,48.33,9.75
257,acapulco,40,MX,1595126970,83,16.86,-99.89,84.2,8.05
258,kysyl-syr,100,RU,1595127035,48,63.9,122.76,71.83,5.28
259,nokaneng,0,BW,1595127035,57,-19.67,22.27,46.08,6.53
260,mwene-ditu,0,CD,1595127035,60,-7.0,23.45,55.47,7.94
261,saint george,1,US,1595126938,8,37.1,-113.58,102.2,12.75
262,chunhuhub,27,MX,1595126580,93,19.55,-88.68,75.52,3.33
263,shingu,75,JP,1595127035,74,33.73,135.98,80.6,4.7
264,puerto baquerizo moreno,55,EC,1595126961,93,-0.9,-89.6,68.38,14.94
265,dong xoai,35,VN,1595127035,68,11.53,106.92,85.95,3.2
266,cache creek,90,CA,1595127036,68,50.81,-121.32,86.0,3.36
267,beringovskiy,98,RU,1595127036,93,63.05,179.32,47.97,9.13
268,ponta do sol,20,PT,1595127036,68,32.67,-17.1,71.6,6.93
269,storm lake,1,US,1595127036,94,42.64,-95.21,84.2,9.17
270,taltal,8,CL,1595127036,73,-25.4,-70.48,54.86,3.49
271,oulainen,17,FI,1595127036,92,64.27,24.8,57.0,7.18
272,gacko,75,BA,1595127036,87,43.17,18.54,60.8,3.36
273,cornesti,99,RO,1595127036,93,44.78,25.87,64.4,3.36
274,menongue,0,AO,1595127036,72,-14.66,17.69,39.88,3.76
275,westport,1,US,1595127037,78,41.14,-73.36,78.8,5.82
276,jumla,85,NP,1595127037,71,29.27,82.18,66.31,3.49
277,moron,90,AR,1595126835,100,-34.65,-58.62,59.0,5.82
278,la ronge,75,CA,1595127037,88,55.1,-105.28,62.6,5.82
279,el molino,99,CO,1595127037,81,10.65,-72.92,75.54,4.21
280,sola,90,VU,1595127037,94,-13.88,167.55,80.6,4.97
281,airai,0,TL,1595127037,33,-8.93,125.41,74.26,3.51
282,dunedin,0,NZ,1595127037,68,-45.87,170.5,55.0,3.0
283,tabory,23,RU,1595127037,76,58.52,64.55,74.05,4.52
284,jining,94,CN,1595127024,63,35.41,116.58,80.55,10.54
285,vuktyl,0,RU,1595127037,80,63.86,57.31,61.65,5.93
286,cabra,2,ES,1595127037,57,37.47,-4.44,80.01,4.7
287,dongsheng,0,CN,1595127037,26,39.82,109.98,74.01,5.28
288,xining,0,CN,1595127037,49,36.62,101.77,64.31,1.07
289,longjiang,84,CN,1595127038,54,47.33,123.18,77.7,16.67
290,salinopolis,49,BR,1595126832,83,-0.61,-47.36,78.04,9.98
291,koumac,0,NC,1595126743,55,-20.57,164.28,72.57,10.04
292,mogocha,92,RU,1595127038,85,53.73,119.77,66.56,15.37
293,tagusao,68,PH,1595127038,63,9.19,117.81,86.63,3.67
294,pisco,0,PE,1595126777,82,-13.7,-76.22,60.8,11.41
295,zhigalovo,86,RU,1595127038,73,54.81,105.16,55.76,6.24
296,bose,60,IT,1595127038,79,45.46,8.01,66.0,5.99
297,suntar,98,RU,1595127038,47,62.14,117.63,68.95,3.8
298,khasan,100,RU,1595127038,83,42.43,130.64,69.31,10.87
299,tanah merah,20,MY,1595127038,70,5.8,102.15,86.0,4.7
300,alta floresta,0,BR,1595127039,57,-9.88,-56.09,77.0,4.7
301,sindor,0,RU,1595127039,72,62.86,51.89,62.73,3.47
302,ostrovnoy,22,RU,1595126504,60,68.05,39.51,61.57,16.22
303,soledar,8,UA,1595127039,84,48.68,38.09,60.75,4.61
304,sioux lookout,75,CA,1595126946,69,50.1,-91.92,73.4,5.82
305,bien hoa,40,VN,1595126842,70,10.95,106.82,87.8,2.24
306,upata,85,VE,1595127039,92,8.01,-62.4,77.0,3.0
307,straumen,100,NO,1595127039,93,63.87,11.3,55.99,9.17
308,leticia,20,CO,1595126976,100,-4.22,-69.94,77.0,1.7
309,gat,0,IL,1595127039,69,31.61,34.76,73.99,1.92
310,christchurch,71,NZ,1595126892,100,-43.53,172.63,54.0,13.87
311,fort nelson,75,CA,1595127039,53,58.81,-122.7,75.2,5.82
312,rodeo,1,US,1595127039,65,38.03,-122.27,78.01,5.01
313,grand gaube,38,MU,1595127040,77,-20.01,57.66,66.0,5.99
314,pauini,86,BR,1595127040,62,-7.71,-66.98,79.79,0.85
315,manokwari,29,ID,1595127040,69,-0.87,134.08,83.95,6.46
316,louga,100,RU,1595127040,85,58.74,29.85,59.9,1.99
317,kazerun,8,IR,1595127040,16,29.62,51.65,89.96,7.0
318,ambilobe,61,MG,1595127040,63,-13.2,49.05,61.54,4.16
319,taloda,100,IN,1595127040,79,21.57,74.22,82.42,12.26
320,mount isa,0,AU,1595126459,11,-20.73,139.5,78.8,6.93
321,bud,35,US,1595126892,88,39.45,-86.18,82.99,6.6
322,saint-joseph,90,RE,1595126469,68,-21.37,55.62,66.2,12.75
323,bolshaya dzhalga,0,RU,1595127040,64,45.97,42.7,71.74,2.89
324,yongan,0,CN,1595127041,34,39.7,113.69,72.48,8.79
325,komsomolskiy,0,UZ,1595127041,39,40.43,71.72,78.8,4.7
326,atambua,0,ID,1595126946,39,-9.11,124.89,83.71,1.95
327,zemio,100,CF,1595127041,97,5.03,25.14,67.48,3.15
328,dobson,1,US,1595127041,83,36.4,-80.72,77.0,3.47
329,alpena,1,US,1595127041,88,45.06,-83.43,69.8,5.82
330,sandeid,48,NO,1595127041,82,59.54,5.86,55.4,8.05
331,marawi,3,PH,1595127041,78,8.0,124.29,84.0,5.99
332,panguipulli,75,CL,1595127041,100,-39.63,-72.33,51.8,4.7
333,cabedelo,20,BR,1595127041,81,-6.98,-34.83,74.82,12.93
334,puerto colombia,20,CO,1595127041,83,10.99,-74.95,82.4,9.17
335,yulara,100,AU,1595127041,38,-25.24,130.99,59.0,9.17
336,vanderhoof,72,CA,1595127042,72,54.02,-124.02,63.88,2.53
337,adeje,2,ES,1595127042,57,28.12,-16.73,81.0,3.36
338,kahului,1,US,1595127042,52,20.89,-156.47,89.6,24.16
339,mandera,66,KE,1595127042,59,3.94,41.87,76.51,18.3
340,masaka,81,UG,1595127042,52,-0.33,31.73,63.81,5.86
341,yeppoon,0,AU,1595127042,33,-23.13,150.73,75.2,4.7
342,ulaangom,0,MN,1595127042,49,49.98,92.07,71.82,4.68
343,iwanai,85,JP,1595127042,65,42.97,140.51,77.94,2.53
344,aykhal,75,RU,1595127042,72,66.0,111.5,59.0,6.71
345,nome,1,US,1595127042,76,64.5,-165.41,61.0,21.92
346,aracaju,40,BR,1595126764,65,-10.91,-37.07,78.8,10.29
347,ekuvukeni,0,ZA,1595127042,46,-28.47,30.16,44.96,2.21
348,maragogi,1,BR,1595127042,83,-9.01,-35.22,74.44,10.31
349,bulgan,94,MN,1595127042,82,48.81,103.53,52.75,6.22
350,vesoul,90,FR,1595127042,93,47.58,5.83,60.8,1.12
351,ulladulla,63,AU,1595126568,66,-35.35,150.47,63.0,9.53
352,tepalcatepec,60,MX,1595127043,72,19.18,-102.85,75.69,3.42
353,ishigaki,75,JP,1595127043,75,24.34,124.16,89.6,17.22
354,katsuura,75,JP,1595126991,70,35.13,140.3,84.2,16.11
355,ternate,1,ID,1595126881,64,0.8,127.4,84.88,4.52
356,sibu,40,MY,1595126773,83,2.3,111.82,82.4,2.24
357,nisia floresta,20,BR,1595127043,88,-6.09,-35.21,71.6,20.8
358,arman,77,RU,1595127043,40,59.7,150.17,69.35,6.29
359,port lincoln,62,AU,1595127043,64,-34.73,135.87,55.58,23.06
360,verkhnyachka,99,UA,1595127043,90,48.83,30.04,59.25,6.98
361,kungurtug,10,RU,1595127043,35,50.6,97.52,67.44,2.44
362,san jose iturbide,90,MX,1595127043,82,21.0,-100.38,66.0,8.05
363,paragominas,75,BR,1595127043,76,-2.97,-47.48,70.66,3.62
364,quelimane,17,MZ,1595127043,88,-17.88,36.89,65.97,4.79
365,onega,67,RU,1595127043,66,63.91,38.14,58.78,5.1
366,chicama,43,PE,1595127043,84,-7.84,-79.15,60.53,6.4
367,nizwa,3,OM,1595127044,52,22.93,57.53,86.54,2.98
368,marsa matruh,40,EG,1595127044,88,31.35,27.25,69.8,8.39
369,roseburg,1,US,1595126956,28,43.22,-123.34,84.2,11.41
370,chuy,12,UY,1595127027,93,-33.7,-53.46,62.46,6.13
371,krasnyy chikoy,72,RU,1595127044,55,50.36,108.75,56.71,10.89
372,berlevag,48,NO,1595127044,71,70.86,29.09,53.6,2.24
373,piacabucu,0,BR,1595127044,85,-10.41,-36.43,74.03,13.69
374,rudbar,0,AF,1595127044,17,30.15,62.6,88.25,15.57
375,nishihara,75,JP,1595127044,70,26.18,127.76,87.8,13.87
376,husavik,90,IS,1595126878,87,66.04,-17.34,42.8,12.75
377,foz do iguacu,0,BR,1595127044,56,-25.55,-54.59,73.4,6.93
378,soubre,74,CI,1595127044,97,5.79,-6.61,71.2,2.86
379,rio verde de mato grosso,0,BR,1595127044,39,-18.92,-54.84,70.65,5.68
380,novobirilyussy,13,RU,1595127044,47,56.95,90.67,69.94,0.98
381,tual,42,ID,1595127044,82,-5.67,132.75,78.4,16.4
382,sechura,2,PE,1595127044,80,-5.56,-80.82,62.67,13.38
383,rafai,100,CF,1595127045,99,4.95,23.92,66.96,1.74
384,kieta,49,PG,1595126954,67,-6.22,155.63,84.24,4.81
385,kodinsk,0,RU,1595127045,44,58.69,99.18,62.22,6.26
386,vung tau,95,VN,1595127001,68,10.35,107.08,85.37,2.15
387,bahia de caraquez,54,EC,1595127045,86,-0.6,-80.42,72.12,8.81
388,hambantota,75,LK,1595127045,94,6.12,81.12,78.8,1.12
389,goderich,65,CA,1595127008,80,43.75,-81.72,78.01,18.63
390,san patricio,40,MX,1595127045,74,19.22,-104.7,82.4,11.41
391,kawalu,51,ID,1595127045,64,-7.38,108.21,80.01,3.6
392,coari,69,BR,1595127045,95,-4.08,-63.14,73.56,2.13
393,nuuk,100,GL,1595127046,87,64.18,-51.72,51.8,5.82
394,seymchan,0,RU,1595127046,41,62.88,152.43,70.18,9.26
395,makakilo city,1,US,1595127046,49,21.35,-158.09,89.6,10.29
396,kruisfontein,0,ZA,1595127046,81,-34.0,24.73,48.87,4.43
397,abu samrah,0,SY,1595126589,59,35.3,37.18,66.61,6.2
398,tartagal,76,AR,1595127046,72,-22.52,-63.8,69.39,3.47
399,petropavlovsk-kamchatskiy,100,RU,1595127046,44,53.05,158.65,75.2,8.95
400,dongtai,100,CN,1595127046,81,32.85,120.31,88.0,14.83
401,beyneu,0,KZ,1595126920,25,45.32,55.2,89.98,6.15
402,freilassing,75,DE,1595127046,100,47.85,12.98,55.99,10.29
403,barra patuca,0,HN,1595127046,85,15.8,-84.28,80.38,8.79
404,champerico,4,GT,1595127046,72,14.3,-91.92,82.22,1.77
405,coihaique,90,CL,1595127046,93,-45.58,-72.07,32.0,3.36
406,peniche,0,PT,1595127046,91,39.36,-9.38,64.0,5.01
407,formosa do rio preto,16,BR,1595127046,55,-11.05,-45.19,68.0,6.55
408,bandarbeyla,88,SO,1595126956,61,9.49,50.81,79.65,33.91
409,saucillo,55,MX,1595127046,34,28.02,-105.28,84.25,7.65
410,moramanga,100,MG,1595127046,94,-18.93,48.2,53.71,7.54
411,alofi,93,NU,1595126878,69,-19.06,-169.92,78.8,11.41
412,caravelas,27,BR,1595126491,74,-17.71,-39.25,69.96,5.91
413,longyearbyen,75,SJ,1595126918,87,78.22,15.64,42.8,3.36
414,aracati,97,BR,1595127046,67,-4.56,-37.77,77.4,13.06
415,cleveland,75,US,1595126884,54,41.5,-81.7,84.2,8.05
416,artyom,0,AZ,1595127047,94,40.47,50.33,75.2,4.7
417,sattenapalle,75,IN,1595127047,79,16.4,80.18,86.0,4.7
418,fundata,100,RO,1595127047,93,45.44,25.28,60.01,2.51
419,imeni babushkina,4,RU,1595127047,92,59.76,43.13,56.91,5.41
420,hammerfest,97,NO,1595127047,71,70.66,23.68,55.4,18.34
421,lianyuan,100,CN,1595127047,92,27.69,111.66,76.33,3.49
422,kedrovyy,0,RU,1595127047,67,56.17,91.82,62.6,2.24
423,bageshwar,46,IN,1595127047,70,29.85,79.77,80.53,2.15
424,aripuana,0,BR,1595127047,61,-9.17,-60.63,75.47,1.5
425,quchan,0,IR,1595127047,22,37.11,58.51,76.69,5.64
426,kapuskasing,90,CA,1595127047,94,49.42,-82.43,69.8,6.93
427,onokhoy,75,RU,1595127047,42,51.93,108.07,62.6,17.9
428,karangasem,40,ID,1595127047,94,-8.45,115.62,82.4,11.41
429,bayir,0,TR,1595127048,93,37.27,28.22,62.6,3.36
430,glodeni,100,MD,1595127048,61,47.77,27.51,64.99,5.01
431,constitucion,95,CL,1595126799,91,-35.33,-72.42,54.77,9.98
432,morant bay,20,JM,1595127048,74,17.88,-76.41,84.2,5.82
433,villa del rosario,99,CO,1595127048,73,7.83,-72.47,74.05,4.56
434,isangel,20,VU,1595127048,57,-19.55,169.27,77.0,11.41
435,sena madureira,0,BR,1595127048,61,-9.07,-68.66,74.64,1.05
436,coquimbo,100,CL,1595127048,87,-29.95,-71.34,53.6,4.7
437,parakou,100,BJ,1595127048,98,9.34,2.63,69.01,3.62
438,paita,0,PE,1595127048,86,-5.09,-81.11,61.02,13.44
439,narsaq,74,GL,1595126830,61,60.92,-46.05,50.0,5.82
440,verkhnetulomskiy,40,RU,1595127048,93,68.61,31.8,53.6,2.24
441,outjo,0,NA,1595127048,48,-20.12,16.15,48.56,14.99
442,bull savanna,79,JM,1595127048,81,17.89,-77.59,77.45,4.61
443,kaoma,0,ZM,1595127049,93,-14.78,24.8,41.59,5.32
444,buchanan,100,LR,1595127049,86,5.88,-10.05,75.97,4.97
445,roebourne,0,AU,1595127049,50,-20.78,117.13,72.16,7.14
446,cacule,4,BR,1595126997,86,-14.5,-42.22,60.4,5.53
447,udankudi,40,IN,1595127049,62,8.43,78.02,86.0,5.82
448,dingle,100,PH,1595127000,67,11.0,122.67,85.8,6.24
449,lusambo,79,CD,1595127049,55,-4.97,23.45,64.36,2.1
450,cockburn town,0,TC,1595127049,78,21.46,-71.14,83.7,17.72
451,rawson,100,AR,1595127049,82,-43.3,-65.1,45.66,11.74
452,kasongo-lunda,0,CD,1595127049,43,-6.47,16.82,62.49,3.02
453,yanam,20,IN,1595127049,79,16.73,82.22,86.0,3.98
454,valparaiso,75,CL,1595127049,93,-33.04,-71.63,55.4,3.36
455,balkanabat,0,TM,1595127050,21,39.51,54.37,92.46,1.57
456,omsukchan,80,RU,1595127050,55,62.53,155.8,60.75,14.41
457,maarianhamina,30,AX,1595127050,88,60.1,19.93,62.6,5.82
458,itarema,14,BR,1595127013,79,-2.92,-39.92,77.36,13.15
459,sorong,0,ID,1595127050,71,-0.88,131.25,83.79,4.27
460,yarkovo,0,RU,1595127050,63,57.4,67.08,79.25,1.74
461,marietta,75,US,1595127050,94,33.95,-84.55,78.8,1.21
462,san onofre,100,CO,1595127050,90,9.74,-75.53,78.04,5.26
463,cap malheureux,38,MU,1595127050,77,-19.98,57.61,66.0,5.99
464,beloha,0,MG,1595126844,88,-25.17,45.05,57.45,7.02
465,santa rosa,20,PH,1595127050,58,14.31,121.11,91.99,10.29
466,port hedland,40,AU,1595126484,64,-20.32,118.57,69.8,5.82
467,broome,1,US,1595127050,54,42.25,-75.83,78.8,3.36
468,merauke,75,ID,1595126548,76,-8.47,140.33,79.3,11.83
469,oni,0,GE,1595127051,64,42.58,43.44,68.4,4.59
470,avera,1,US,1595127051,78,33.19,-82.53,80.6,4.7
471,svetlogorsk,0,BY,1595127051,87,52.63,29.73,55.87,3.58
472,kabac,100,PH,1595127051,72,11.24,123.7,83.62,8.75
473,pontes e lacerda,0,BR,1595127051,52,-15.23,-59.34,73.2,2.13
474,deputatskiy,100,RU,1595126413,44,69.3,139.9,61.88,12.39
475,akdepe,0,TM,1595127051,36,42.06,59.38,84.2,9.17
476,manoel urbano,0,BR,1595127051,61,-8.84,-69.26,73.72,0.45
477,ramsi,87,EE,1595127051,87,58.31,25.54,59.0,1.41
478,kushiro,75,JP,1595127051,82,42.98,144.37,66.2,3.36
479,tessalit,63,ML,1595127051,54,20.2,1.01,82.71,10.4
480,isla aguada,97,MX,1595127051,81,18.78,-91.47,82.83,15.19
481,vila franca do campo,40,PT,1595127052,68,37.72,-25.43,68.0,5.82
482,grindavik,20,IS,1595126989,81,63.84,-22.43,46.4,10.29
483,betioky,0,MG,1595127052,88,-23.72,44.38,54.16,4.74
484,kiryu,8,JP,1595127052,62,36.4,139.33,89.01,5.01
485,clarence town,0,AU,1595126982,63,-32.58,151.78,66.99,10.29
486,muravlenko,79,RU,1595127052,76,63.79,74.52,69.22,8.9
487,te anau,0,NZ,1595127052,62,-45.42,167.72,50.0,0.49
488,mapiripan,41,CO,1595127052,90,2.89,-72.13,72.36,1.81
489,luena,0,AO,1595127052,82,-11.78,19.92,44.01,5.39
490,shimoda,75,JP,1595126886,83,34.67,138.95,82.0,16.11
491,cururupu,69,BR,1595127052,94,-1.83,-44.87,72.48,1.83
492,eyl,97,SO,1595126995,62,7.98,49.82,78.82,31.94
493,palmer,20,US,1595126894,83,42.16,-72.33,72.0,3.36
494,diffa,59,NE,1595127052,50,13.32,12.61,81.14,8.77
495,rivers,75,CA,1595127052,93,50.03,-100.24,57.2,6.93
496,salalah,90,OM,1595126802,94,17.02,54.09,78.8,8.05
497,mayumba,24,GA,1595127052,92,-3.43,10.66,70.11,2.64
498,antofagasta,90,CL,1595127052,76,-23.65,-70.4,55.4,4.7
499,daru,78,PG,1595127053,82,-9.08,143.21,77.65,13.73
500,bayshore gardens,1,US,1595127053,74,27.43,-82.59,82.99,8.05
501,srednekolymsk,0,RU,1595127053,45,67.45,153.68,70.99,10.49
502,mount gambier,75,AU,1595127053,87,-37.83,140.77,50.0,21.92
503,kupang,20,ID,1595127053,38,-10.17,123.58,87.8,6.93
504,labuhan,0,ID,1595127053,65,-6.88,112.21,83.73,5.46
505,feijo,42,BR,1595127053,65,-8.16,-70.35,76.39,1.07
506,acajutla,2,SV,1595127053,100,13.59,-89.83,75.0,3.91
507,biltine,0,TD,1595127053,57,14.53,20.92,81.43,4.61
508,evensk,100,RU,1595126473,80,61.95,159.23,54.9,8.03
509,ixtapa,90,MX,1595127053,83,20.7,-105.2,80.6,5.82
510,yablonovo,0,RU,1595127053,87,50.85,37.36,57.2,8.95
511,trincomalee,100,LK,1595127054,70,8.57,81.23,83.26,5.97
512,yerbogachen,30,RU,1595127054,64,61.28,108.01,59.27,5.57
513,miri,40,MY,1595127054,83,4.41,114.01,84.2,4.7
514,conde,0,BR,1595126845,87,-7.26,-34.91,71.08,9.13
515,nyrob,47,RU,1595127054,72,60.73,56.72,66.25,3.8
516,meulaboh,57,ID,1595127054,65,4.14,96.13,85.12,1.39
517,bandundu,3,CD,1595127054,62,-3.32,17.37,72.12,0.69
518,taoudenni,0,ML,1595127054,12,22.68,-3.98,96.8,7.4
519,alyangula,0,AU,1595127054,51,-13.85,136.42,80.6,10.29
520,darhan,96,MN,1595127054,63,49.49,105.92,57.83,3.87
521,laguna,1,US,1595126498,27,38.42,-121.42,91.4,10.29
522,bedele,100,ET,1595127054,100,8.46,36.35,54.45,2.75
523,yibin,49,CN,1595127054,52,28.77,104.62,89.62,1.03
524,bambanglipuro,19,ID,1595127054,67,-7.95,110.28,83.28,10.25
525,sao paulo do potengi,20,BR,1595127054,100,-5.89,-35.76,71.6,3.36
526,pathalgaon,98,IN,1595127054,72,22.57,83.47,82.62,7.92
527,touros,20,BR,1595127054,100,-5.2,-35.46,69.8,3.36
528,clinton,75,US,1595127055,78,42.59,-82.92,86.0,6.93
529,sao miguel do araguaia,0,BR,1595127055,45,-13.28,-50.16,70.45,4.23
530,waddan,0,LY,1595127055,54,29.16,16.14,75.58,6.2
531,jasper,1,US,1595126953,66,37.2,-94.35,84.2,9.17
532,hatta,36,IN,1595127055,57,24.12,79.6,89.82,9.64
533,krasnovishersk,69,RU,1595127055,66,60.41,57.08,67.87,2.84
534,mingaora,0,PK,1595127055,53,34.78,72.36,82.38,1.23
535,lynden,20,US,1595127055,56,48.95,-122.45,73.99,9.17
536,richards bay,0,ZA,1595127055,40,-28.78,32.04,55.72,3.42
537,necochea,27,AR,1595127054,89,-38.55,-58.74,44.01,5.99
538,ewa beach,1,US,1595127055,49,21.32,-158.01,89.6,10.29
539,sao filipe,19,CV,1595127056,76,14.9,-24.5,76.15,5.46
540,gayny,45,RU,1595127056,71,60.31,54.32,65.62,3.87
541,dwarka,8,IN,1595126798,79,22.24,68.97,85.57,16.82
542,otradnoye,100,RU,1595127056,77,59.78,30.82,63.0,4.47
543,egvekinot,12,RU,1595127056,59,66.32,-179.17,51.62,7.74
544,brae,72,GB,1595126534,87,60.4,-1.35,51.8,16.11
545,mayfield,1,US,1595126920,78,36.74,-88.64,80.6,5.82
546,banda aceh,86,ID,1595127056,73,5.56,95.32,82.9,2.68
547,masyaf,0,SY,1595127056,77,35.07,36.34,69.8,3.36
548,balagunan,75,PH,1595127056,70,7.49,125.52,86.0,4.7
549,severnoye,37,RU,1595127056,68,56.35,78.36,73.31,4.25
550,tuatapere,2,NZ,1595127035,52,-46.13,167.68,50.58,2.91
551,salta,27,AR,1595126907,67,-24.79,-65.41,59.0,5.82
552,ikwiriri,10,TZ,1595127056,80,-7.96,38.97,67.44,5.26
553,sibolga,100,ID,1595127056,57,1.74,98.78,86.58,2.64
554,puerto padre,86,CU,1595127057,83,21.2,-76.6,78.8,6.93
555,chapais,75,CA,1595127057,82,49.78,-74.85,68.0,2.24
556,khakhea,0,BW,1595127057,66,-24.69,23.49,40.06,4.56
557,ayan,98,RU,1595127057,95,56.45,138.17,55.53,5.14
558,channel-port aux basques,40,CA,1595126519,91,47.57,-59.14,56.55,7.72
559,port blair,62,IN,1595126894,71,11.67,92.75,84.49,8.46
560,turukhansk,1,RU,1595127057,57,65.82,87.98,57.9,3.98
561,sosnogorsk,0,RU,1595127057,74,63.6,53.88,62.73,4.5
562,jonesboro,1,US,1595127057,70,35.84,-90.7,84.2,6.93
563,ayagoz,99,KZ,1595127057,48,47.97,80.44,74.82,11.74
564,thaba nchu,0,ZA,1595127057,62,-29.21,26.84,24.8,2.24
565,messina,40,IT,1595127057,88,38.19,15.55,73.0,1.12
566,samarai,100,PG,1595126665,85,-10.62,150.67,77.0,16.15
567,jutai,100,BR,1595127057,93,-5.18,-68.9,73.26,2.15
568,araouane,97,ML,1595127058,55,18.9,-3.53,83.97,13.73
569,tabou,16,CI,1595127058,90,4.42,-7.35,74.61,5.91
570,orange cove,1,US,1595127058,41,36.62,-119.31,96.8,3.27
571,ubala,30,CO,1595127058,86,4.75,-72.54,71.22,4.5
572,viedma,100,AR,1595127058,54,-40.81,-63.0,55.24,6.91
573,muhos,1,FI,1595127058,93,64.81,25.99,61.0,5.82
574,bijie,100,CN,1595127058,75,27.31,105.29,71.89,6.17
575,aguimes,20,ES,1595127058,30,27.91,-15.45,82.4,20.8
576,ushtobe,97,KZ,1595127058,18,45.25,77.98,92.61,11.54
577,mumford,99,GH,1595127058,94,5.26,-0.76,73.94,8.16
578,paamiut,99,GL,1595127058,85,61.99,-49.67,46.83,9.51
579,banamba,25,ML,1595127059,79,13.55,-7.45,77.86,6.15
580,henties bay,0,NA,1595127059,30,-22.12,14.28,64.0,1.99
